[{"name":"Bewick Mobility (Blaydon)","address":"Chainbridge Road","city":"Blaydon-On-Tyne, Durham","postcode":"NE21 5ST","country":"United Kingdom","phone":"0191 4140240","email":"info@bewickmobility.co.uk","website":"https://www.bewickmobility.co.uk/","lat":54.9659,"lng":-1.7130,"hours":"Mon-Fri: 9am-5pm","is_authorized":true,"offers_demo":true}, 
 {"name":"Bewick Mobility (Stockton)","address":"Mandale Wharf, Boathouse Court","city":"Stockton on Tees","postcode":"TS18 3FA","country":"United Kingdom","phone":"01642 634220","email":"stockton@bewickmobility.co.uk","website":"https://www.bewickmobility.co.uk/","lat":54.5650,"lng":-1.3185,"hours":"Mon-Fri: 9am-5pm","is_authorized":true,"offers_demo":true}, 
 {"name":"Blue Sky Mobility (Castlemilk)","address":"50 Glenwood Business Park, Glenwood Place","city":"Castlemilk, Glasgow","postcode":"G45 9UH","country":"United Kingdom","phone":"0141 634 6270","email":"info@blueskymobility.co.uk","website":"https://www.blueskymobility.co.uk/","lat":55.8077,"lng":-4.2312,"hours":"Mon-Fri: 9am-5pm","is_authorized":true,"offers_demo":true}, 
 {"name":"Blue Sky Mobility (The Forge)","address":"The Forge Shopping Centre, 1221 Gallowgate","city":"Glasgow","postcode":"G31 4EB","country":"United Kingdom","phone":"0141 554 4714","email":"info@blueskymobility.co.uk","website":"https://www.blueskymobility.co.uk/","lat":55.8547,"lng":-4.2147,"hours":"Mon-Sat: 9am-5:30pm","is_authorized":true,"offers_demo":true}, 
 {"name":"Des Gosling Mobility Ltd","address":"Unit 10 Station Yard, Station Road","city":"Melbourne","postcode":"DE73 8HJ","country":"UK","phone":"01332 863742","email":"sales@desgosling.co.uk","website":"https://www.desgoslingmobilityltd.co.uk/contact-us/","lat":52.8228134,"lng":-1.4283564,"hours":"Mon–Fri 8:30am – 5:30pm","is_authorized":true,"offers_demo":true}, 
 {"name":"Distribe Limited","address":"Lasyard House, Underhill Street","city":"Bridgnorth, Shropshire","postcode":"WV16 4BB","country":"United Kingdom","phone":"0808 188 9018","email":"info@distribe.co.uk","website":"https://www.distribe.co.uk/","lat":52.5342,"lng":-2.4197,"hours":"Mon-Fri: 9am-5pm","is_authorized":true,"offers_demo":true}, 
 {"name":"Felgains","address":"33 Knightsdale Road","city":"Ipswich, Suffolk","postcode":"IP1 4JJ","country":"United Kingdom","phone":"01473 741144","email":"showroom@felgains.com","website":"https://www.felgains.com/","lat":52.0567,"lng":1.1482,"hours":"Mon-Fri: 9am-5pm, Sat: 9am-1pm","is_authorized":true,"offers_demo":true}, 
 {"name":"John Preston & Co (Belfast) Ltd","address":"Unit 2 Blaris Industrial Estate, 7 Altona Road","city":"Lisburn, Co Antrim","postcode":"BT27 5QB","country":"Northern Ireland","phone":"028 9267 7077","email":"enquiries@johnpreston.co.uk","website":"https://www.johnpreston.co.uk/","lat":54.4996,"lng":-6.0477,"hours":"Mon-Fri: 9am-5pm","is_authorized":true,"offers_demo":true}, 
 {"name":"Lifestyle and Mobility (Basildon)","address":"Units 20-22, Eastgate Shopping Centre, Southernhay","city":"Basildon","postcode":"SS14 1JJ","country":"United Kingdom","phone":"01268 520233","email":"info@lifestyleandmobility.co.uk","website":"https://www.lifestyleandmobility.co.uk/","lat":51.5761,"lng":0.4550,"hours":"Mon-Sat: 9am-5pm","is_authorized":true,"offers_demo":true}, 
 {"name":"Lifestyle and Mobility (Southend)","address":"The Victoria Shopping Centre, Chartwell Square","city":"Southend-On-Sea, Essex","postcode":"SS2 5SP","country":"United Kingdom","phone":"0208 159 7070","email":"southend@lifestyleandmobility.co.uk","website":"https://www.lifestyleandmobility.co.uk/","lat":51.5384,"lng":0.7106,"hours":"Mon-Sat: 9am-5pm","is_authorized":true,"offers_demo":true}, 
 {"name":"Mobility Station (West Drayton)","address":"1-2 Horton Close","city":"West Drayton, London","postcode":"UB7 8EB","country":"United Kingdom","phone":"01895 520361","email":"hello@mobilitystation.co.uk","website":"https://mobilitystation.co.uk/","lat":51.5054,"lng":-0.4718,"hours":"Mon-Fri: 9am-5pm, Sat: 10am-4pm","is_authorized":true,"offers_demo":true}, 
 {"name":"Mobility Station (Wimborne)","address":"Unit 2 Old Forge Road","city":"Wimborne, Dorset","postcode":"BH21 7RR","country":"United Kingdom","phone":"01202 287361","email":"hello@mobilitystation.co.uk","website":"https://mobilitystation.co.uk/","lat":50.8,"lng":-1.9833,"hours":"Mon-Fri: 9am-5pm, Sat: 10am-4pm","is_authorized":true,"offers_demo":true}, 
 {"name":"Mobility World (Harrow)","address":"78-80 Station Road","city":"Harrow","postcode":"HA1 2RX","country":"United Kingdom","phone":"020 3974 1820","email":"enq@mobilityworld.co.uk","website":"https://www.mobilityworld.co.uk/","lat":51.5790,"lng":-0.3377,"hours":"Mon-Fri: 9am-5pm, Sat: 10am-4pm","is_authorized":true,"offers_demo":true}, 
 {"name":"Mobility World (Letchworth)","address":"Birds Hill","city":"Letchworth Garden City","postcode":"SG6 1HX","country":"United Kingdom","phone":"01462 708830","email":"enq@mobilityworld.co.uk","website":"https://www.mobilityworld.co.uk/","lat":51.9785,"lng":-0.2289,"hours":"Mon-Fri: 9am-5pm, Sat: 10am-4pm","is_authorized":true,"offers_demo":true}, 
 {"name":"OC Cars & Mobility Ltd","address":"Unit 1 Harris Park, Swords Road","city":"Cloghran, Co. Dublin","postcode":"K67 V123","country":"Republic of Ireland","phone":"+353 1 833 2301","email":"sales@occars.ie","website":"https://occars.ie/","lat":53.4162,"lng":-6.2318,"hours":"Mon-Fri: 9am-5:30pm","is_authorized":true,"offers_demo":true}, 
 {"name":"Sun Mobility","address":"Unit 20 Asda Mall, Lower Earley District Centre","city":"Reading","postcode":"RG6 5TT","country":"United Kingdom","phone":"0118 315 1165","email":"info@sunmobility.co.uk","website":"https://www.sunmobility.co.uk/","lat":51.4199,"lng":-0.9262,"hours":"Mon-Sat: 9am-5pm","is_authorized":true,"offers_demo":true}, 
 {"name":"TravelMobility Ltd.","address":"12 Ryder Crescent","city":"Southport","postcode":"PR8 3AE","country":"United Kingdom","phone":"01704 525115 / 07584 424245","email":"info@mytravelmobility.co.uk","website":"https://mytravelmobility.co.uk/","lat":53.6138500,"lng":-3.0224300,"hours":"Mon-Fri: 9am-5pm","is_authorized":true,"offers_demo":true}]